[{"name": "Shanghai", "coordinates": [121.47, 31.23]}, {"name": "Singapore", "coordinates": [103.85, 1.29]}, {"name": "Ningbo", "coordinates": [121.55, 29.87]}, {"name": "Shenzhen", "coordinates": [114.05, 22.52]}, {"name": "Guangzhou", "coordinates": [113.34, 23.1]}, {"name": "Qingdao", "coordinates": [120.38, 36.07]}, {"name": "Busan", "coordinates": [129.04, 35.1]}, {"name": "Hong Kong", "coordinates": [114.16, 22.31]}, {"name": "Tianjin", "coordinates": [117.7, 38.98]}, {"name": "Rotterdam", "coordinates": [4.47, 51.92]}, {"name": "Dubai", "coordinates": [55.3, 25.27]}, {"name": "Port Klang", "coordinates": [101.39, 3.0]}, {"name": "Antwerp", "coordinates": [4.4, 51.22]}, {"name": "Xiamen", "coordinates": [118.07, 24.48]}, {"name": "Kaohsiung", "coordinates": [120.28, 22.62]}, {"name": "Los Angeles", "coordinates": [-118.27, 33.74]}, {"name": "Hamburg", "coordinates": [9.99, 53.55]}, {"name": "Tanjung Pelepas", "coordinates": [103.55, 1.36]}, {"name": "Long Beach", "coordinates": [-118.19, 33.75]}, {"name": "Laem Chabang", "coordinates": [100.88, 13.08]}, {"name": "New York", "coordinates": [-74.04, 40.67]}, {"name": "Ho Chi Minh", "coordinates": [106.62, 10.82]}, {"name": "Jakarta", "coordinates": [106.88, -6.11]}, {"name": "Colombo", "coordinates": [79.86, 6.92]}, {"name": "Dalian", "coordinates": [121.6, 38.91]}, {"name": "Valencia", "coordinates": [-0.37, 39.46]}, {"name": "Piraeus", "coordinates": [23.65, 37.94]}, {"name": "Savannah", "coordinates": [-81.09, 32.08]}, {"name": "Algeciras", "coordinates": [-5.45, 36.13]}, {"name": "Mumbai", "coordinates": [72.84, 18.94]}, {"name": "Felixstowe", "coordinates": [1.34, 51.96]}, {"name": "Santos", "coordinates": [-46.33, -23.96]}, {"name": "Manila", "coordinates": [120.98, 14.59]}, {"name": "Durban", "coordinates": [31.02, -29.85]}, {"name": "Le Havre", "coordinates": [0.1, 49.49]}, {"name": "Jeddah", "coordinates": [39.17, 21.54]}, {"name": "Seattle", "coordinates": [-122.33, 47.6]}, {"name": "Vancouver", "coordinates": [-123.12, 49.28]}, {"name": "Melbourne", "coordinates": [144.96, -37.81]}, {"name": "Sydney", "coordinates": [151.21, -33.86]}, {"name": "Tokyo", "coordinates": [139.75, 35.67]}, {"name": "Yokohama", "coordinates": [139.64, 35.44]}, {"name": "Osaka", "coordinates": [135.43, 34.65]}, {"name": "Karachi", "coordinates": [67.01, 24.85]}, {"name": "Cape Town", "coordinates": [18.42, -33.92]}, {"name": "Barcelona", "coordinates": [2.17, 41.35]}, {"name": "Houston", "coordinates": [-95.36, 29.76]}, {"name": "Panama", "coordinates": [-79.52, 9.0]}, {"name": "Mombasa", "coordinates": [39.66, -4.04]}]